$GPRMC,000000.000,A,4732.8045,N,00735.3679,E,0.0,0.0,010110,,,A*6E
$GPGGA,000000.000,4732.8045,N,00735.3679,E,1,08,1.0,276.0,M,0.0,M,,*67
$GPRMC,000059.000,A,4732.9297,N,00735.4719,E,0.0,0.0,010110,,,A*6E
$GPGGA,000059.000,4732.9297,N,00735.4719,E,1,08,1.0,278.0,M,0.0,M,,*69
$GPRMC,000147.000,A,4733.0104,N,00735.5928,E,0.0,0.0,010110,,,A*6C
$GPGGA,000147.000,4733.0104,N,00735.5928,E,1,08,1.0,276.0,M,0.0,M,,*65
$GPRMC,000231.000,A,4733.1015,N,00735.6752,E,0.0,0.0,010110,,,A*6E
$GPGGA,000231.000,4733.1015,N,00735.6752,E,1,08,1.0,275.0,M,0.0,M,,*64
$GPRMC,000331.000,A,4733.2143,N,00735.5380,E,0.0,0.0,010110,,,A*66
$GPGGA,000331.000,4733.2143,N,00735.5380,E,1,08,1.0,276.0,M,0.0,M,,*6F
$GPRMC,000411.000,A,4733.1900,N,00735.4008,E,0.0,0.0,010110,,,A*6D
$GPGGA,000411.000,4733.1900,N,00735.4008,E,1,08,1.0,264.0,M,0.0,M,,*67
$GPRMC,000509.000,A,4733.0714,N,00735.2891,E,0.0,0.0,010110,,,A*61
$GPGGA,000509.000,4733.0714,N,00735.2891,E,1,08,1.0,277.0,M,0.0,M,,*69
$GPRMC,000609.000,A,4733.0047,N,00735.1013,E,0.0,0.0,010110,,,A*62
$GPGGA,000609.000,4733.0047,N,00735.1013,E,1,08,1.0,271.0,M,0.0,M,,*6C
$GPRMC,000704.000,A,4732.9002,N,00734.9811,E,0.0,0.0,010110,,,A*64
$GPGGA,000704.000,4732.9002,N,00734.9811,E,1,08,1.0,274.0,M,0.0,M,,*6F
$GPRMC,000753.000,A,4732.8246,N,00734.8457,E,0.0,0.0,010110,,,A*6A
$GPGGA,000753.000,4732.8246,N,00734.8457,E,1,08,1.0,274.0,M,0.0,M,,*61
$GPRMC,000840.000,A,4732.7490,N,00734.7177,E,0.0,0.0,010110,,,A*6D
$GPGGA,000840.000,4732.7490,N,00734.7177,E,1,08,1.0,271.0,M,0.0,M,,*63
$GPRMC,000929.000,A,4732.6329,N,00734.6870,E,0.0,0.0,010110,,,A*68
$GPGGA,000929.000,4732.6329,N,00734.6870,E,1,08,1.0,279.0,M,0.0,M,,*6E
$GPRMC,001022.000,A,4732.5119,N,00734.6276,E,0.0,0.0,010110,,,A*65
$GPGGA,001022.000,4732.5119,N,00734.6276,E,1,08,1.0,284.0,M,0.0,M,,*61
$GPRMC,001107.000,A,4732.4145,N,00734.5600,E,0.0,0.0,010110,,,A*6D
$GPGGA,001107.000,4732.4145,N,00734.5600,E,1,08,1.0,281.0,M,0.0,M,,*6C
$GPRMC,001154.000,A,4732.3041,N,00734.5131,E,0.0,0.0,010110,,,A*6C
$GPGGA,001154.000,4732.3041,N,00734.5131,E,1,08,1.0,281.0,M,0.0,M,,*6D
$GPRMC,001244.000,A,4732.1845,N,00734.5146,E,0.0,0.0,010110,,,A*60
$GPGGA,001244.000,4732.1845,N,00734.5146,E,1,08,1.0,285.0,M,0.0,M,,*65
$GPRMC,001332.000,A,4732.0746,N,00734.4601,E,0.0,0.0,010110,,,A*68
$GPGGA,001332.000,4732.0746,N,00734.4601,E,1,08,1.0,288.0,M,0.0,M,,*60
$GPRMC,001418.000,A,4731.9694,N,00734.4042,E,0.0,0.0,010110,,,A*62
$GPGGA,001418.000,4731.9694,N,00734.4042,E,1,08,1.0,290.0,M,0.0,M,,*63
$GPRMC,001506.000,A,4731.8551,N,00734.3918,E,0.0,0.0,010110,,,A*66
$GPGGA,001506.000,4731.8551,N,00734.3918,E,1,08,1.0,289.0,M,0.0,M,,*6F
$GPRMC,001557.000,A,4731.7310,N,00734.3975,E,0.0,0.0,010110,,,A*65
$GPGGA,001557.000,4731.7310,N,00734.3975,E,1,08,1.0,292.0,M,0.0,M,,*66
$GPRMC,001644.000,A,4731.6191,N,00734.3935,E,0.0,0.0,010110,,,A*6A
$GPGGA,001644.000,4731.6191,N,00734.3935,E,1,08,1.0,291.0,M,0.0,M,,*6A
$GPRMC,001730.000,A,4731.5141,N,00734.3332,E,0.0,0.0,010110,,,A*6B
$GPGGA,001730.000,4731.5141,N,00734.3332,E,1,08,1.0,293.0,M,0.0,M,,*69
$GPRMC,001817.000,A,4731.4134,N,00734.2637,E,0.0,0.0,010110,,,A*63
$GPGGA,001817.000,4731.4134,N,00734.2637,E,1,08,1.0,292.0,M,0.0,M,,*60
$GPRMC,001905.000,A,4731.3308,N,00734.1399,E,0.0,0.0,010110,,,A*69
$GPGGA,001905.000,4731.3308,N,00734.1399,E,1,08,1.0,292.0,M,0.0,M,,*6A
$GPRMC,001956.000,A,4731.2452,N,00734.0124,E,0.0,0.0,010110,,,A*63
$GPGGA,001956.000,4731.2452,N,00734.0124,E,1,08,1.0,297.0,M,0.0,M,,*65
$GPRMC,002042.000,A,4731.1720,N,00733.8879,E,0.0,0.0,010110,,,A*67
$GPGGA,002042.000,4731.1720,N,00733.8879,E,1,08,1.0,292.0,M,0.0,M,,*64
$GPRMC,002127.000,A,4731.1164,N,00733.7500,E,0.0,0.0,010110,,,A*6F
$GPGGA,002127.000,4731.1164,N,00733.7500,E,1,08,1.0,295.0,M,0.0,M,,*6B
$GPRMC,002216.000,A,4731.0172,N,00733.6553,E,0.0,0.0,010110,,,A*6F
$GPGGA,002216.000,4731.0172,N,00733.6553,E,1,08,1.0,296.0,M,0.0,M,,*68
$GPRMC,002302.000,A,4730.9173,N,00733.5842,E,0.0,0.0,010110,,,A*6C
$GPGGA,002302.000,4730.9173,N,00733.5842,E,1,08,1.0,295.0,M,0.0,M,,*68
$GPRMC,002347.000,A,4730.8366,N,00733.4756,E,0.0,0.0,010110,,,A*61
$GPGGA,002347.000,4730.8366,N,00733.4756,E,1,08,1.0,297.0,M,0.0,M,,*67
$GPRMC,002433.000,A,4730.7384,N,00733.4002,E,0.0,0.0,010110,,,A*60
$GPGGA,002433.000,4730.7384,N,00733.4002,E,1,08,1.0,296.0,M,0.0,M,,*67
$GPRMC,002522.000,A,4730.6206,N,00733.3829,E,0.0,0.0,010110,,,A*6D
$GPGGA,002522.000,4730.6206,N,00733.3829,E,1,08,1.0,297.0,M,0.0,M,,*6B
$GPRMC,002605.000,A,4730.5185,N,00733.3544,E,0.0,0.0,010110,,,A*66
$GPGGA,002605.000,4730.5185,N,00733.3544,E,1,08,1.0,297.0,M,0.0,M,,*60
$GPRMC,002653.000,A,4730.4052,N,00733.3204,E,0.0,0.0,010110,,,A*6C
$GPGGA,002653.000,4730.4052,N,00733.3204,E,1,08,1.0,297.0,M,0.0,M,,*6A
$GPRMC,002739.000,A,4730.2938,N,00733.3069,E,0.0,0.0,010110,,,A*6B
$GPGGA,002739.000,4730.2938,N,00733.3069,E,1,08,1.0,299.0,M,0.0,M,,*63
$GPRMC,002826.000,A,4730.1846,N,00733.3442,E,0.0,0.0,010110,,,A*6C
$GPGGA,002826.000,4730.1846,N,00733.3442,E,1,08,1.0,303.0,M,0.0,M,,*66
$GPRMC,002911.000,A,4730.0822,N,00733.4000,E,0.0,0.0,010110,,,A*6F
$GPGGA,002911.000,4730.0822,N,00733.4000,E,1,08,1.0,302.0,M,0.0,M,,*64
$GPRMC,002954.000,A,4729.9809,N,00733.4369,E,0.0,0.0,010110,,,A*6A
$GPGGA,002954.000,4729.9809,N,00733.4369,E,1,08,1.0,306.0,M,0.0,M,,*65
$GPRMC,003044.000,A,4729.8672,N,00733.3781,E,0.0,0.0,010110,,,A*65
$GPGGA,003044.000,4729.8672,N,00733.3781,E,1,08,1.0,306.0,M,0.0,M,,*6A
$GPRMC,003132.000,A,4729.7605,N,00733.3121,E,0.0,0.0,010110,,,A*66
$GPGGA,003132.000,4729.7605,N,00733.3121,E,1,08,1.0,307.0,M,0.0,M,,*68
$GPRMC,003218.000,A,4729.6584,N,00733.2486,E,0.0,0.0,010110,,,A*6F
$GPGGA,003218.000,4729.6584,N,00733.2486,E,1,08,1.0,308.0,M,0.0,M,,*6E
$GPRMC,003304.000,A,4729.5530,N,00733.1936,E,0.0,0.0,010110,,,A*6A
$GPGGA,003304.000,4729.5530,N,00733.1936,E,1,08,1.0,309.0,M,0.0,M,,*6A
$GPRMC,003352.000,A,4729.4440,N,00733.1343,E,0.0,0.0,010110,,,A*66
$GPGGA,003352.000,4729.4440,N,00733.1343,E,1,08,1.0,310.0,M,0.0,M,,*6E
$GPRMC,003439.000,A,4729.3399,N,00733.0681,E,0.0,0.0,010110,,,A*62
$GPGGA,003439.000,4729.3399,N,00733.0681,E,1,08,1.0,310.0,M,0.0,M,,*6A
$GPRMC,003526.000,A,4729.2355,N,00733.0114,E,0.0,0.0,010110,,,A*67
$GPGGA,003526.000,4729.2355,N,00733.0114,E,1,08,1.0,314.0,M,0.0,M,,*6B
$GPRMC,003611.000,A,4729.1381,N,00732.9358,E,0.0,0.0,010110,,,A*68
$GPGGA,003611.000,4729.1381,N,00732.9358,E,1,08,1.0,321.0,M,0.0,M,,*62
$GPRMC,003656.000,A,4729.0441,N,00732.8551,E,0.0,0.0,010110,,,A*6F
$GPGGA,003656.000,4729.0441,N,00732.8551,E,1,08,1.0,325.0,M,0.0,M,,*61
$GPRMC,003741.000,A,4729.0290,N,00732.6984,E,0.0,0.0,010110,,,A*68
$GPGGA,003741.000,4729.0290,N,00732.6984,E,1,08,1.0,324.0,M,0.0,M,,*67
$GPRMC,003828.000,A,4729.0545,N,00732.5325,E,0.0,0.0,010110,,,A*65
$GPGGA,003828.000,4729.0545,N,00732.5325,E,1,08,1.0,324.0,M,0.0,M,,*6A
$GPRMC,003912.000,A,4729.1240,N,00732.4176,E,0.0,0.0,010110,,,A*6B
$GPGGA,003912.000,4729.1240,N,00732.4176,E,1,08,1.0,321.0,M,0.0,M,,*61
$GPRMC,003956.000,A,4729.1625,N,00732.2684,E,0.0,0.0,010110,,,A*60
$GPGGA,003956.000,4729.1625,N,00732.2684,E,1,08,1.0,321.0,M,0.0,M,,*6A
$GPRMC,004043.000,A,4729.1635,N,00732.1002,E,0.0,0.0,010110,,,A*60
$GPGGA,004043.000,4729.1635,N,00732.1002,E,1,08,1.0,323.0,M,0.0,M,,*68
$GPRMC,004128.000,A,4729.1805,N,00731.9431,E,0.0,0.0,010110,,,A*6E
$GPGGA,004128.000,4729.1805,N,00731.9431,E,1,08,1.0,330.0,M,0.0,M,,*64
$GPRMC,004214.000,A,4729.2050,N,00731.7839,E,0.0,0.0,010110,,,A*63
$GPGGA,004214.000,4729.2050,N,00731.7839,E,1,08,1.0,333.0,M,0.0,M,,*6A
$GPRMC,004300.000,A,4729.2121,N,00731.6173,E,0.0,0.0,010110,,,A*66
$GPGGA,004300.000,4729.2121,N,00731.6173,E,1,08,1.0,339.0,M,0.0,M,,*65
$GPRMC,004347.000,A,4729.2195,N,00731.4516,E,0.0,0.0,010110,,,A*6F
$GPGGA,004347.000,4729.2195,N,00731.4516,E,1,08,1.0,342.0,M,0.0,M,,*60
$GPRMC,004432.000,A,4729.2508,N,00731.2964,E,0.0,0.0,010110,,,A*65
$GPGGA,004432.000,4729.2508,N,00731.2964,E,1,08,1.0,348.0,M,0.0,M,,*60
$GPRMC,004519.000,A,4729.2981,N,00731.1438,E,0.0,0.0,010110,,,A*67
$GPGGA,004519.000,4729.2981,N,00731.1438,E,1,08,1.0,355.0,M,0.0,M,,*6E
$GPRMC,004608.000,A,4729.3382,N,00730.9818,E,0.0,0.0,010110,,,A*6B
$GPGGA,004608.000,4729.3382,N,00730.9818,E,1,08,1.0,357.0,M,0.0,M,,*60
$GPRMC,004655.000,A,4729.3546,N,00730.8149,E,0.0,0.0,010110,,,A*61
$GPGGA,004655.000,4729.3546,N,00730.8149,E,1,08,1.0,363.0,M,0.0,M,,*6D
$GPRMC,004740.000,A,4729.3453,N,00730.6544,E,0.0,0.0,010110,,,A*66
$GPGGA,004740.000,4729.3453,N,00730.6544,E,1,08,1.0,365.0,M,0.0,M,,*6C
$GPRMC,004827.000,A,4729.3632,N,00730.4896,E,0.0,0.0,010110,,,A*6D
$GPGGA,004827.000,4729.3632,N,00730.4896,E,1,08,1.0,371.0,M,0.0,M,,*62
$GPRMC,004914.000,A,4729.3635,N,00730.3202,E,0.0,0.0,010110,,,A*6B
$GPGGA,004914.000,4729.3635,N,00730.3202,E,1,08,1.0,375.0,M,0.0,M,,*60
$GPRMC,005005.000,A,4729.3428,N,00730.1436,E,0.0,0.0,010110,,,A*6E
$GPGGA,005005.000,4729.3428,N,00730.1436,E,1,08,1.0,376.0,M,0.0,M,,*66
$GPRMC,005050.000,A,4729.3395,N,00729.9816,E,0.0,0.0,010110,,,A*61
$GPGGA,005050.000,4729.3395,N,00729.9816,E,1,08,1.0,377.0,M,0.0,M,,*68
$GPRMC,005110.000,A,4729.3201,N,00729.9175,E,0.0,0.0,010110,,,A*64
$GPGGA,005110.000,4729.3201,N,00729.9175,E,1,08,1.0,386.0,M,0.0,M,,*63
$GPRMC,005152.000,A,4729.2190,N,00729.9176,E,0.0,0.0,010110,,,A*6B
$GPGGA,005152.000,4729.2190,N,00729.9176,E,1,08,1.0,386.0,M,0.0,M,,*6C
$GPRMC,005236.000,A,4729.1116,N,00729.9205,E,0.0,0.0,010110,,,A*60
$GPGGA,005236.000,4729.1116,N,00729.9205,E,1,08,1.0,390.0,M,0.0,M,,*60
$GPRMC,005321.000,A,4729.0047,N,00729.9349,E,0.0,0.0,010110,,,A*6A
$GPGGA,005321.000,4729.0047,N,00729.9349,E,1,08,1.0,398.0,M,0.0,M,,*62
$GPRMC,005406.000,A,4728.8979,N,00729.9650,E,0.0,0.0,010110,,,A*68
$GPGGA,005406.000,4728.8979,N,00729.9650,E,1,08,1.0,406.0,M,0.0,M,,*60
$GPRMC,005449.000,A,4728.8004,N,00729.9058,E,0.0,0.0,010110,,,A*6E
$GPGGA,005449.000,4728.8004,N,00729.9058,E,1,08,1.0,418.0,M,0.0,M,,*69
$GPRMC,005534.000,A,4728.7295,N,00729.7856,E,0.0,0.0,010110,,,A*68
$GPGGA,005534.000,4728.7295,N,00729.7856,E,1,08,1.0,431.0,M,0.0,M,,*64
$GPRMC,005619.000,A,4728.6347,N,00729.7086,E,0.0,0.0,010110,,,A*6E
$GPGGA,005619.000,4728.6347,N,00729.7086,E,1,08,1.0,449.0,M,0.0,M,,*6D
$GPRMC,005704.000,A,4728.5421,N,00729.6253,E,0.0,0.0,010110,,,A*6C
$GPGGA,005704.000,4728.5421,N,00729.6253,E,1,08,1.0,480.0,M,0.0,M,,*6A
$GPRMC,005749.000,A,4728.4604,N,00729.5172,E,0.0,0.0,010110,,,A*62
$GPGGA,005749.000,4728.4604,N,00729.5172,E,1,08,1.0,500.0,M,0.0,M,,*6D
$GPRMC,005837.000,A,4728.3726,N,00729.4104,E,0.0,0.0,010110,,,A*62
$GPGGA,005837.000,4728.3726,N,00729.4104,E,1,08,1.0,508.0,M,0.0,M,,*65
$GPRMC,005926.000,A,4728.2634,N,00729.3377,E,0.0,0.0,010110,,,A*61
$GPGGA,005926.000,4728.2634,N,00729.3377,E,1,08,1.0,514.0,M,0.0,M,,*6B
$GPRMC,010011.000,A,4728.1792,N,00729.2388,E,0.0,0.0,010110,,,A*67
$GPGGA,010011.000,4728.1792,N,00729.2388,E,1,08,1.0,507.0,M,0.0,M,,*6F
$GPRMC,010053.000,A,4728.2584,N,00729.1457,E,0.0,0.0,010110,,,A*61
$GPGGA,010053.000,4728.2584,N,00729.1457,E,1,08,1.0,523.0,M,0.0,M,,*6F
$GPRMC,010137.000,A,4728.3024,N,00728.9998,E,0.0,0.0,010110,,,A*6B
$GPGGA,010137.000,4728.3024,N,00728.9998,E,1,08,1.0,530.0,M,0.0,M,,*67
$GPRMC,010222.000,A,4728.3132,N,00728.8428,E,0.0,0.0,010110,,,A*6D
$GPGGA,010222.000,4728.3132,N,00728.8428,E,1,08,1.0,533.0,M,0.0,M,,*62
$GPRMC,010307.000,A,4728.2796,N,00728.6908,E,0.0,0.0,010110,,,A*63
$GPGGA,010307.000,4728.2796,N,00728.6908,E,1,08,1.0,534.0,M,0.0,M,,*6B
$GPRMC,010353.000,A,4728.2293,N,00728.5445,E,0.0,0.0,010110,,,A*65
$GPGGA,010353.000,4728.2293,N,00728.5445,E,1,08,1.0,523.0,M,0.0,M,,*6B
$GPRMC,010439.000,A,4728.1647,N,00728.4107,E,0.0,0.0,010110,,,A*62
$GPGGA,010439.000,4728.1647,N,00728.4107,E,1,08,1.0,510.0,M,0.0,M,,*6C
$GPRMC,010524.000,A,4728.0961,N,00728.2856,E,0.0,0.0,010110,,,A*6E
$GPGGA,010524.000,4728.0961,N,00728.2856,E,1,08,1.0,514.0,M,0.0,M,,*64
$GPRMC,010608.000,A,4728.0542,N,00728.1395,E,0.0,0.0,010110,,,A*69
$GPGGA,010608.000,4728.0542,N,00728.1395,E,1,08,1.0,514.0,M,0.0,M,,*63
$GPRMC,010652.000,A,4728.0264,N,00727.9887,E,0.0,0.0,010110,,,A*6A
$GPGGA,010652.000,4728.0264,N,00727.9887,E,1,08,1.0,517.0,M,0.0,M,,*63
$GPRMC,010735.000,A,4727.9468,N,00727.8905,E,0.0,0.0,010110,,,A*6C
$GPGGA,010735.000,4727.9468,N,00727.8905,E,1,08,1.0,527.0,M,0.0,M,,*66
$GPRMC,010820.000,A,4727.8435,N,00727.8444,E,0.0,0.0,010110,,,A*66
$GPGGA,010820.000,4727.8435,N,00727.8444,E,1,08,1.0,535.0,M,0.0,M,,*6F
$GPRMC,010904.000,A,4727.7382,N,00727.8336,E,0.0,0.0,010110,,,A*67
$GPGGA,010904.000,4727.7382,N,00727.8336,E,1,08,1.0,551.0,M,0.0,M,,*6C
$GPRMC,010946.000,A,4727.6539,N,00727.7453,E,0.0,0.0,010110,,,A*6D
$GPGGA,010946.000,4727.6539,N,00727.7453,E,1,08,1.0,570.0,M,0.0,M,,*65
$GPRMC,011031.000,A,4727.5737,N,00727.6400,E,0.0,0.0,010110,,,A*6D
$GPGGA,011031.000,4727.5737,N,00727.6400,E,1,08,1.0,603.0,M,0.0,M,,*62
$GPRMC,011116.000,A,4727.4867,N,00727.5404,E,0.0,0.0,010110,,,A*65
$GPGGA,011116.000,4727.4867,N,00727.5404,E,1,08,1.0,603.0,M,0.0,M,,*6A
$GPRMC,011203.000,A,4727.4418,N,00727.3895,E,0.0,0.0,010110,,,A*64
$GPGGA,011203.000,4727.4418,N,00727.3895,E,1,08,1.0,634.0,M,0.0,M,,*6F
$GPRMC,011247.000,A,4727.3923,N,00727.2512,E,0.0,0.0,010110,,,A*65
$GPGGA,011247.000,4727.3923,N,00727.2512,E,1,08,1.0,657.0,M,0.0,M,,*6B
$GPRMC,011334.000,A,4727.3857,N,00727.0830,E,0.0,0.0,010110,,,A*6D
$GPGGA,011334.000,4727.3857,N,00727.0830,E,1,08,1.0,664.0,M,0.0,M,,*63
$GPRMC,011401.000,A,4727.3197,N,00727.0673,E,0.0,0.0,010110,,,A*60
$GPGGA,011401.000,4727.3197,N,00727.0673,E,1,08,1.0,660.0,M,0.0,M,,*6A
$GPRMC,011449.000,A,4727.2177,N,00727.1419,E,0.0,0.0,010110,,,A*6C
$GPGGA,011449.000,4727.2177,N,00727.1419,E,1,08,1.0,703.0,M,0.0,M,,*62
$GPRMC,011535.000,A,4727.1175,N,00727.2167,E,0.0,0.0,010110,,,A*68
$GPGGA,011535.000,4727.1175,N,00727.2167,E,1,08,1.0,718.0,M,0.0,M,,*6C
$GPRMC,011620.000,A,4727.0499,N,00727.3391,E,0.0,0.0,010110,,,A*63
$GPGGA,011620.000,4727.0499,N,00727.3391,E,1,08,1.0,745.0,M,0.0,M,,*6F
$GPRMC,011656.000,A,4727.0336,N,00727.4681,E,0.0,0.0,010110,,,A*63
$GPGGA,011656.000,4727.0336,N,00727.4681,E,1,08,1.0,759.0,M,0.0,M,,*62
$GPRMC,011714.000,A,4726.9929,N,00727.4565,E,0.0,0.0,010110,,,A*61
$GPGGA,011714.000,4726.9929,N,00727.4565,E,1,08,1.0,756.0,M,0.0,M,,*6F
$GPRMC,011800.000,A,4726.9504,N,00727.3032,E,0.0,0.0,010110,,,A*68
$GPGGA,011800.000,4726.9504,N,00727.3032,E,1,08,1.0,758.0,M,0.0,M,,*68
$GPRMC,011848.000,A,4726.9577,N,00727.1321,E,0.0,0.0,010110,,,A*63
$GPGGA,011848.000,4726.9577,N,00727.1321,E,1,08,1.0,779.0,M,0.0,M,,*60
$GPRMC,011933.000,A,4726.9635,N,00726.9716,E,0.0,0.0,010110,,,A*62
$GPGGA,011933.000,4726.9635,N,00726.9716,E,1,08,1.0,784.0,M,0.0,M,,*63
$GPRMC,012021.000,A,4726.9473,N,00726.8022,E,0.0,0.0,010110,,,A*6A
$GPGGA,012021.000,4726.9473,N,00726.8022,E,1,08,1.0,791.0,M,0.0,M,,*6F
$GPRMC,012107.000,A,4726.9035,N,00726.6506,E,0.0,0.0,010110,,,A*64
$GPGGA,012107.000,4726.9035,N,00726.6506,E,1,08,1.0,799.0,M,0.0,M,,*69
$GPRMC,012153.000,A,4726.8583,N,00726.5023,E,0.0,0.0,010110,,,A*6D
$GPGGA,012153.000,4726.8583,N,00726.5023,E,1,08,1.0,799.0,M,0.0,M,,*60
$GPRMC,012240.000,A,4726.8069,N,00726.3531,E,0.0,0.0,010110,,,A*6D
$GPGGA,012240.000,4726.8069,N,00726.3531,E,1,08,1.0,804.0,M,0.0,M,,*6B
$GPRMC,012329.000,A,4726.7475,N,00726.2001,E,0.0,0.0,010110,,,A*62
$GPGGA,012329.000,4726.7475,N,00726.2001,E,1,08,1.0,809.0,M,0.0,M,,*69
$GPRMC,012415.000,A,4726.7017,N,00726.0525,E,0.0,0.0,010110,,,A*6B
$GPGGA,012415.000,4726.7017,N,00726.0525,E,1,08,1.0,812.0,M,0.0,M,,*6A
$GPRMC,012459.000,A,4726.6744,N,00725.9023,E,0.0,0.0,010110,,,A*6A
$GPGGA,012459.000,4726.6744,N,00725.9023,E,1,08,1.0,797.0,M,0.0,M,,*69
$GPRMC,012544.000,A,4726.6410,N,00725.7476,E,0.0,0.0,010110,,,A*6F
$GPGGA,012544.000,4726.6410,N,00725.7476,E,1,08,1.0,808.0,M,0.0,M,,*65
$GPRMC,012621.000,A,4726.5700,N,00725.6674,E,0.0,0.0,010110,,,A*6F
$GPGGA,012621.000,4726.5700,N,00725.6674,E,1,08,1.0,805.0,M,0.0,M,,*68
$GPRMC,012703.000,A,4726.4903,N,00725.5778,E,0.0,0.0,010110,,,A*6C
$GPGGA,012703.000,4726.4903,N,00725.5778,E,1,08,1.0,797.0,M,0.0,M,,*6F
$GPRMC,012749.000,A,4726.4370,N,00725.4319,E,0.0,0.0,010110,,,A*6E
$GPGGA,012749.000,4726.4370,N,00725.4319,E,1,08,1.0,790.0,M,0.0,M,,*6A
$GPRMC,012835.000,A,4726.3879,N,00725.2851,E,0.0,0.0,010110,,,A*6E
$GPGGA,012835.000,4726.3879,N,00725.2851,E,1,08,1.0,780.0,M,0.0,M,,*6B
$GPRMC,012920.000,A,4726.4716,N,00725.1849,E,0.0,0.0,010110,,,A*60
$GPGGA,012920.000,4726.4716,N,00725.1849,E,1,08,1.0,775.0,M,0.0,M,,*6F
$GPRMC,013008.000,A,4726.5775,N,00725.2595,E,0.0,0.0,010110,,,A*69
$GPGGA,013008.000,4726.5775,N,00725.2595,E,1,08,1.0,750.0,M,0.0,M,,*61
$GPRMC,013046.000,A,4726.5849,N,00725.1253,E,0.0,0.0,010110,,,A*6D
$GPGGA,013046.000,4726.5849,N,00725.1253,E,1,08,1.0,752.0,M,0.0,M,,*67
